{
"type": "FeatureCollection",
                                                                                
"features": [
{ "type": "Feature", "properties": { "name": null }, "geometry": { "type": "MultiLineString", "coordinates": [ [ [ -86.306483092361887, 12.095636378926661 ], [ -86.30655792202505, 12.095405279162867 ], [ -86.30681888261509, 12.094934910155445 ], [ -86.306963511375827, 12.094781194614157 ], [ -86.307060978584147, 12.09472278268529 ], [ -86.307135179426623, 12.094709694897974 ], [ -86.307211895551887, 12.094695113872421 ], [ -86.307334874914289, 12.094678161233293 ], [ -86.307732289595975, 12.094621681707585 ], [ -86.308262295613616, 12.094542364406385 ], [ -86.308815478165585, 12.094476749744102 ], [ -86.308929204880542, 12.094464715995723 ], [ -86.309358779249408, 12.094415614783218 ], [ -86.310053805784733, 12.094244067900249 ] ], [ [ -86.299377418464488, 12.097983202841313 ], [ -86.299347414734001, 12.098081228274076 ], [ -86.299315883867536, 12.098529193503873 ], [ -86.299307799029975, 12.098730689776183 ], [ -86.299290910702624, 12.099149053172924 ], [ -86.298482786273041, 12.099265787247617 ], [ -86.298354327187411, 12.099284320643795 ], [ -86.298365645959976, 12.099543963727212 ], [ -86.298430234828928, 12.099871327972574 ], [ -86.298459969064808, 12.100022405514306 ], [ -86.298530217320035, 12.100459124532589 ], [ -86.298568934708783, 12.100675551392239 ], [ -86.298551507392276, 12.100797467094754 ], [ -86.298509286573918, 12.101091715859502 ], [ -86.298484762566673, 12.101163389539392 ], [ -86.298370137536395, 12.101500062339788 ], [ -86.298317675923812, 12.101653686182136 ], [ -86.298317675923812, 12.101753818313142 ], [ -86.298355225502704, 12.102035593441828 ], [ -86.298365645959976, 12.102078456964053 ], [ -86.298409663408904, 12.102253600055112 ], [ -86.29849635083383, 12.102597386109656 ], [ -86.298513688318806, 12.102758299614282 ], [ -86.298494733866335, 12.102929577528569 ], [ -86.298485750713482, 12.103010122027747 ], [ -86.298428168703765, 12.103235066787249 ], [ -86.298272400833497, 12.103844375401282 ], [ -86.2980909411461, 12.104554165044481 ], [ -86.297857109677651, 12.105421614843237 ], [ -86.297799078510295, 12.105636808008537 ], [ -86.297722901374215, 12.106098374804949 ], [ -86.297658851494432, 12.106494416925608 ], [ -86.297565786031015, 12.107345084254797 ], [ -86.297543417980435, 12.107638183975975 ], [ -86.297535782300528, 12.107737523364985 ], [ -86.29749751406942, 12.108256880683159 ], [ -86.297425828509745, 12.108870481652039 ], [ -86.29739429764328, 12.109139777022907 ], [ -86.297366719364049, 12.109373851219571 ], [ -86.297361688798446, 12.109415923070312 ], [ -86.297299615212324, 12.110005894441953 ], [ -86.297207088738062, 12.110885623040572 ], [ -86.29711680805201, 12.111743566430142 ], [ -86.297027605344297, 12.112591757752968 ], [ -86.296989696439297, 12.112951515835068 ], [ -86.296935707690722, 12.113464802650013 ], [ -86.296842193069651, 12.114353566448948 ], [ -86.296749486932342, 12.115234861674862 ], [ -86.296655972311257, 12.116123619580167 ], [ -86.296628034705918, 12.116389394420045 ], [ -86.296564074657695, 12.116996652925449 ], [ -86.296514846980116, 12.117493156430259 ], [ -86.296478285548048, 12.117861076085852 ], [ -86.2963753386165, 12.118750615711638 ], [ -86.296318475259014, 12.119328006847669 ], [ -86.296289369843819, 12.119623289145354 ], [ -86.296195046738973, 12.120504479139703 ], [ -86.296083386149164, 12.121394009952656 ], [ -86.296000202153849, 12.122259121494235 ], [ -86.2959889732128, 12.122375757637704 ], [ -86.295903184103153, 12.122980016359639 ], [ -86.295782989518145, 12.123911520655469 ], [ -86.295765113043998, 12.12415418902283 ], [ -86.295731516052385, 12.12460799496457 ], [ -86.295696841082403, 12.125015075890685 ], [ -86.295693696978915, 12.125051875624472 ], [ -86.295680042586596, 12.125212160801906 ], [ -86.295656147400038, 12.125421980540628 ], [ -86.295618867315738, 12.125749576537665 ], [ -86.295607728206207, 12.125828796742459 ], [ -86.295604404439658, 12.125925582370938 ], [ -86.295577814307251, 12.126187483051535 ], [ -86.295551044511797, 12.12650787629088 ], [ -86.295514662742789, 12.126866649513458 ], [ -86.295413871767892, 12.127555211702209 ], [ -86.295376681515151, 12.127853910129314 ], [ -86.29533634715888, 12.128178429211433 ], [ -86.29525091737537, 12.128845646229461 ], [ -86.295207977904766, 12.129231730238583 ], [ -86.295173572429391, 12.129609294564823 ], [ -86.295001994210125, 12.131136584672968 ], [ -86.294956898782871, 12.131687074442269 ], [ -86.294936866352032, 12.13193087746119 ], [ -86.294930128987403, 12.131992969909142 ], [ -86.29487649956495, 12.132029680854576 ], [ -86.294817480250785, 12.132050671081883 ], [ -86.29461904240452, 12.132029680854576 ], [ -86.294014925375961, 12.131950462492314 ], [ -86.293181378623814, 12.13188301269302 ], [ -86.293148769779009, 12.13188037793488 ], [ -86.293139067973939, 12.131984099560322 ], [ -86.293133049261542, 12.132050495431452 ], [ -86.293075377420294, 12.132668696405855 ], [ -86.293068640055665, 12.132741591155609 ], [ -86.293029563340795, 12.133099653389909 ], [ -86.292980694989339, 12.133549404168143 ], [ -86.292933892763045, 12.133614745752912 ], [ -86.292797528502902, 12.133644518324541 ], [ -86.29206567104093, 12.133573292491304 ], [ -86.291975839512517, 12.134437222798768 ], [ -86.291965508886747, 12.134535673965379 ], [ -86.291878731630305, 12.135370092249618 ], [ -86.291787732292022, 12.13624385300114 ], [ -86.291733024891215, 12.136769565949432 ], [ -86.291694217670965, 12.137142816243601 ], [ -86.291602769175029, 12.138020698874136 ], [ -86.291959669837411, 12.138113528030793 ], [ -86.292246681570688, 12.138227259072663 ], [ -86.292420146252041, 12.138302260057481 ], [ -86.292598102509828, 12.138393420476659 ], [ -86.292653169236743, 12.13842679326201 ], [ -86.293010608888295, 12.138700362121106 ], [ -86.293188834640659, 12.138867225813753 ], [ -86.29331109535083, 12.13902609751662 ], [ -86.293571696614762, 12.139345948385557 ], [ -86.293688567433222, 12.139489450819731 ], [ -86.293944048300034, 12.139803065723484 ], [ -86.294247589034526, 12.140175784832071 ], [ -86.294508010635397, 12.140495370853127 ], [ -86.29501016887923, 12.141111883610836 ], [ -86.295228908650898, 12.141405473158937 ], [ -86.295452678988184, 12.141693968705315 ], [ -86.295806615210125, 12.142114108996816 ], [ -86.295965706846943, 12.142318207009595 ], [ -86.296367433442001, 12.142835477090069 ], [ -86.29669181509108, 12.143213285603865 ], [ -86.296812728328334, 12.143344666588575 ], [ -86.296830514970964, 12.143373647679415 ], [ -86.297024012083156, 12.143681461798101 ], [ -86.297181486752464, 12.144019398258125 ], [ -86.297301232179848, 12.144309296111395 ], [ -86.297439033744425, 12.144783003102685 ], [ -86.297479637595274, 12.144956888661087 ], [ -86.297490507210185, 12.145118567000132 ], [ -86.297499131036929, 12.145588496259217 ], [ -86.297490507210185, 12.146075198422322 ], [ -86.297486464791419, 12.14622967479799 ], [ -86.297469576464081, 12.146882531895985 ], [ -86.297468498485742, 12.146972372073494 ], [ -86.297443165994736, 12.147541446980338 ], [ -86.297430409917695, 12.147828882037983 ], [ -86.29740471810058, 12.148446256013159 ], [ -86.296490502635933, 12.14839936023087 ], [ -86.296271583201175, 12.148389700049982 ], [ -86.29586051412717, 12.148371345705305 ], [ -86.295002982356948, 12.148312857689444 ], [ -86.294133682656508, 12.148214587255486 ], [ -86.293219107865752, 12.148079783696772 ], [ -86.292321601065396, 12.148005751485336 ], [ -86.292061448959089, 12.14799187593214 ], [ -86.291016079462977, 12.147936110252212 ], [ -86.290083179040408, 12.147890970779915 ], [ -86.289393632228311, 12.14787507536079 ], [ -86.289296524346113, 12.147876480480752 ], [ -86.28895776965247, 12.147881486220555 ], [ -86.28859080785891, 12.14788376954043 ], [ -86.288314306414463, 12.147883593900442 ], [ -86.287794631022578, 12.147883066980468 ], [ -86.287549929939189, 12.147861463260801 ], [ -86.287266511467053, 12.147820275676562 ], [ -86.28705064630428, 12.147782776527174 ], [ -86.286506536736695, 12.148259287573547 ], [ -86.286224825063584, 12.148505973476761 ], [ -86.285717905748754, 12.148949023946383 ], [ -86.285332528491864, 12.149285812065663 ], [ -86.28460776772063, 12.149919165778632 ], [ -86.283912651353802, 12.15059045583898 ], [ -86.283706577827616, 12.150741504651103 ], [ -86.283038680413867, 12.151082330173214 ], [ -86.28250112854785, 12.151030077899135 ], [ -86.282254002013204, 12.150811759883338 ], [ -86.282073799967193, 12.150601960141056 ], [ -86.281962229208915, 12.150350270487339 ], [ -86.281944981555455, 12.150260519269219 ], [ -86.281938244190826, 12.150087778825881 ], [ -86.281960702072922, 12.149843904607966 ], [ -86.282034184263168, 12.149045274258121 ], [ -86.282202708210463, 12.147486295946926 ], [ -86.282265230954252, 12.146907999789073 ], [ -86.282351648884571, 12.145900259746529 ], [ -86.28214458721159, 12.145877162914793 ], [ -86.281245732938288, 12.145776959526463 ], [ -86.280356849964662, 12.145692827292242 ], [ -86.279366008206281, 12.145600791164226 ], [ -86.27914286668971, 12.145543707671894 ], [ -86.278808064583316, 12.145458082410448 ], [ -86.278009911453381, 12.145315373580173 ], [ -86.277274281067207, 12.145177319180489 ], [ -86.276569642558357, 12.145045763458203 ], [ -86.276126323965627, 12.144960050215643 ], [ -86.275696120776075, 12.144876883754128 ], [ -86.275549964879332, 12.145735859440416 ], [ -86.27548384887443, 12.145757112049807 ], [ -86.275383147731077, 12.145812966006885 ], [ -86.275262773483007, 12.145860916092772 ], [ -86.275110509042335, 12.145873210985199 ], [ -86.275019599535582, 12.14583904874698 ], [ -86.274906232146748, 12.145773797981601 ], [ -86.274875330100954, 12.145737879316588 ], [ -86.274833648271795, 12.145702926674577 ], [ -86.274722436839596, 12.145653132324899 ], [ -86.274636198572338, 12.145645667562679 ], [ -86.274587150557807, 12.14565005859931 ], [ -86.274440725166514, 12.145719085685531 ], [ -86.274292503144636, 12.145703365778154 ], [ -86.274189735876121, 12.145672013781349 ], [ -86.274105563734011, 12.145605182201594 ], [ -86.273972702903478, 12.145487765837544 ], [ -86.27383759628475, 12.145392831551689 ], [ -86.273601968185716, 12.145296492098444 ], [ -86.273211919689359, 12.145225357201729 ], [ -86.272866607294148, 12.145219912307629 ], [ -86.272744975404677, 12.145260924652465 ], [ -86.272445836415073, 12.145429101546485 ], [ -86.272300399170561, 12.145564433372062 ], [ -86.272121364934435, 12.145637148951426 ], [ -86.271922747425123, 12.14565005859931 ], [ -86.271622530457165, 12.145669730442492 ], [ -86.271310904885112, 12.145605182201594 ], [ -86.270836684246603, 12.145389670002285 ], [ -86.270633305666308, 12.145233524542689 ], [ -86.270401540322993, 12.144948194385865 ], [ -86.270186483643968, 12.144800216021613 ], [ -86.270128811802735, 12.144774572284842 ], [ -86.270041944714762, 12.14473610667506 ], [ -86.269212081055286, 12.144588303835087 ], [ -86.268427402654609, 12.144444716327309 ], [ -86.267895510174881, 12.144352679767843 ], [ -86.267287440559059, 12.14424746999771 ], [ -86.267129247237534, 12.144220069783637 ], [ -86.266746744589554, 12.144153852588003 ], [ -86.266487670461615, 12.144109063759341 ], [ -86.265626635261796, 12.14397241387473 ], [ -86.26544418742759, 12.143984094105397 ], [ -86.265251678462207, 12.14399998975683 ], [ -86.26488381835334, 12.144025545746933 ], [ -86.264742243864561, 12.144042495251037 ], [ -86.264436367510328, 12.144077799396044 ], [ -86.264098870458085, 12.144121007447719 ], [ -86.263889113839255, 12.144111083647854 ], [ -86.263596263056613, 12.144063923638123 ], [ -86.263497897533, 12.144441115660971 ], [ -86.263221126593962, 12.145502871012184 ], [ -86.26336261125121, 12.145499709464065 ] ] ] } },
{ "type": "Feature", "properties": { "name": "Colegio Bautista Belén" }, "geometry": { "type": "Point", "coordinates": [ -86.296256132178286, 12.11932062917751 ] } },
{ "type": "Feature", "properties": { "name": "Pulpería" }, "geometry": { "type": "Point", "coordinates": [ -86.296473793971629, 12.117487008329526 ] } },
{ "type": "Feature", "properties": { "name": "El Ceibo" }, "geometry": { "type": "Point", "coordinates": [ -86.296612583683043, 12.116386408187356 ] } },
{ "type": "Feature", "properties": { "name": "Pulpería Esperanza" }, "geometry": { "type": "Point", "coordinates": [ -86.296961669002442, 12.112942557021523 ] } },
{ "type": "Feature", "properties": { "name": "Parque" }, "geometry": { "type": "Point", "coordinates": [ -86.297514402396743, 12.107635988144686 ] } },
{ "type": "Feature", "properties": { "name": "Palí" }, "geometry": { "type": "Point", "coordinates": [ -86.297668463467986, 12.106100921983908 ] } },
{ "type": "Feature", "properties": { "name": "Pulpería La Esquinita" }, "geometry": { "type": "Point", "coordinates": [ -86.298464370809711, 12.102929577528569 ] } },
{ "type": "Feature", "properties": { "name": "Pulpería Manuel" }, "geometry": { "type": "Point", "coordinates": [ -86.298344894876934, 12.10149347469449 ] } },
{ "type": "Feature", "properties": { "name": "Sorbetería Haydee" }, "geometry": { "type": "Point", "coordinates": [ -86.298538930978296, 12.100797554930262 ] } },
{ "type": "Feature", "properties": { "name": "Quinta Santa María" }, "geometry": { "type": "Point", "coordinates": [ -86.298471826826571, 12.099227051567079 ] } },
{ "type": "Feature", "properties": { "name": "Pulperia" }, "geometry": { "type": "Point", "coordinates": [ -86.301323708359064, 12.098557828118533 ] } },
{ "type": "Feature", "properties": { "name": "Pulperia" }, "geometry": { "type": "Point", "coordinates": [ -86.299293605648487, 12.098731480301788 ] } },
{ "type": "Feature", "properties": { "name": "Pulperia" }, "geometry": { "type": "Point", "coordinates": [ -86.307331101990087, 12.094651195115979 ] } },
{ "type": "Feature", "properties": { "name": "Pulperia" }, "geometry": { "type": "Point", "coordinates": [ -86.305545430868307, 12.095911397047368 ] } },
{ "type": "Feature", "properties": { "name": "Pulperia" }, "geometry": { "type": "Point", "coordinates": [ -86.30392999049289, 12.09575399290687 ] } },
{ "type": "Feature", "properties": { "name": "Pulperia" }, "geometry": { "type": "Point", "coordinates": [ -86.302838986580312, 12.096047895875428 ] } },
{ "type": "Feature", "properties": { "name": "Pulperia" }, "geometry": { "type": "Point", "coordinates": [ -86.302696423944738, 12.098093349696061 ] } },
{ "type": "Feature", "properties": { "name": "Pulperia" }, "geometry": { "type": "Point", "coordinates": [ -86.309378182859533, 12.092137273472986 ] } },
{ "type": "Feature", "properties": { "name": "Colegio Cristiano Restauración" }, "geometry": { "type": "Point", "coordinates": [ -86.309610127865909, 12.092935283654743 ] } },
{ "type": "Feature", "properties": { "name": "Pulperia" }, "geometry": { "type": "Point", "coordinates": [ -86.310024969864102, 12.094149993756401 ] } },
{ "type": "Feature", "properties": { "name": "Pulperia" }, "geometry": { "type": "Point", "coordinates": [ -86.308926330271632, 12.094449695768876 ] } },
{ "type": "Feature", "properties": { "name": "Pulperia" }, "geometry": { "type": "Point", "coordinates": [ -86.309512211499921, 12.090209478348157 ] } },
{ "type": "Feature", "properties": { "name": "Terminal 107" }, "geometry": { "type": "Point", "coordinates": [ -86.30942669188488, 12.088861058782845 ] } },
{ "type": "Feature", "properties": { "name": "Pulperia" }, "geometry": { "type": "Point", "coordinates": [ -86.295969210276539, 12.122260965891483 ] } },
{ "type": "Feature", "properties": { "name": "Colegio La Senda" }, "geometry": { "type": "Point", "coordinates": [ -86.295657584704486, 12.125015163718217 ] } },
{ "type": "Feature", "properties": { "name": "Variedades Antonia" }, "geometry": { "type": "Point", "coordinates": [ -86.295327633500619, 12.127849079666371 ] } },
{ "type": "Feature", "properties": { "name": "Farmacia Asunción" }, "geometry": { "type": "Point", "coordinates": [ -86.294927703536146, 12.131682507524806 ] } },
{ "type": "Feature", "properties": { "name": "Pulpería" }, "geometry": { "type": "Point", "coordinates": [ -86.29312191015201, 12.131979708298418 ] } },
{ "type": "Feature", "properties": { "name": "Libro Café Rosita" }, "geometry": { "type": "Point", "coordinates": [ -86.293017436084455, 12.133101497712159 ] } },
{ "type": "Feature", "properties": { "name": "Puente" }, "geometry": { "type": "Point", "coordinates": [ -86.291949249380096, 12.134534532248216 ] } },
{ "type": "Feature", "properties": { "name": "Galilea" }, "geometry": { "type": "Point", "coordinates": [ -86.291693948176373, 12.136769214654802 ] } },
{ "type": "Feature", "properties": { "name": "Agroalfa" }, "geometry": { "type": "Point", "coordinates": [ -86.293529385964874, 12.139367025859308 ] } },
{ "type": "Feature", "properties": { "name": "Autolavado Ticuer" }, "geometry": { "type": "Point", "coordinates": [ -86.295916748663956, 12.142358692870472 ] } },
{ "type": "Feature", "properties": { "name": "Cerrajeria Lico" }, "geometry": { "type": "Point", "coordinates": [ -86.297406514731136, 12.146225195950391 ] } },
{ "type": "Feature", "properties": { "name": "Parque Mennen" }, "geometry": { "type": "Point", "coordinates": [ -86.2962750866308, 12.148355713774398 ] } },
{ "type": "Feature", "properties": { "name": "Farmacia Dayser" }, "geometry": { "type": "Point", "coordinates": [ -86.292064143904952, 12.147947263389131 ] } },
{ "type": "Feature", "properties": { "name": "Salud Integral" }, "geometry": { "type": "Point", "coordinates": [ -86.28929373956872, 12.147820363496589 ] } },
{ "type": "Feature", "properties": { "name": "Ruta Maya" }, "geometry": { "type": "Point", "coordinates": [ -86.286459824341904, 12.148227848057891 ] } },
{ "type": "Feature", "properties": { "name": "Estadio Nacional" }, "geometry": { "type": "Point", "coordinates": [ -86.282045682698808, 12.14984469498209 ] } },
{ "type": "Feature", "properties": { "name": "27 De Mayo" }, "geometry": { "type": "Point", "coordinates": [ -86.282141532939633, 12.145823416667376 ] } },
{ "type": "Feature", "properties": { "name": "Mangueras" }, "geometry": { "type": "Point", "coordinates": [ -86.279159844848579, 12.145489961357162 ] } },
{ "type": "Feature", "properties": { "name": "Central Line" }, "geometry": { "type": "Point", "coordinates": [ -86.276137822401267, 12.144917808330833 ] } },
{ "type": "Feature", "properties": { "name": "Plaza Inter" }, "geometry": { "type": "Point", "coordinates": [ -86.273874786537519, 12.145336889685634 ] } },
{ "type": "Feature", "properties": { "name": "Barracudas" }, "geometry": { "type": "Point", "coordinates": [ -86.271916549049664, 12.145599210390751 ] } },
{ "type": "Feature", "properties": { "name": "El Redentor" }, "geometry": { "type": "Point", "coordinates": [ -86.267135176118416, 12.144169396944424 ] } },
{ "type": "Feature", "properties": { "name": "El Panal" }, "geometry": { "type": "Point", "coordinates": [ -86.26336261125121, 12.145440693892446 ] } }
]
}
