{
"type": "FeatureCollection",
                                                                                
"features": [
{ "type": "Feature", "properties": { "name": null }, "geometry": { "type": "LineString", "coordinates": [ [ -86.310567462464192, 12.148167779252281 ], [ -86.310744879732809, 12.14978857841291 ], [ -86.310962990683777, 12.151177701524329 ], [ -86.304899811673621, 12.152681771709684 ], [ -86.304510571661012, 12.152750270061869 ], [ -86.304280423285235, 12.158131550870426 ], [ -86.304218439530615, 12.158203297033058 ], [ -86.296976670867679, 12.15790032962953 ], [ -86.296989786270842, 12.157027166860187 ], [ -86.297115819905201, 12.154486609581712 ], [ -86.294481779829098, 12.155039158704763 ], [ -86.294371646375268, 12.155101245764323 ], [ -86.293197099141281, 12.155206363426165 ], [ -86.293316395411011, 12.154174504881338 ], [ -86.293298968094504, 12.153937220758905 ], [ -86.292781268996265, 12.153305193882769 ], [ -86.292704822365593, 12.153248902406924 ], [ -86.291788900101892, 12.153147647974986 ], [ -86.291866873868557, 12.153057897700423 ], [ -86.291932810210412, 12.152567871205546 ], [ -86.282201899726715, 12.152112005245613 ], [ -86.282491336911264, 12.152603876767257 ], [ -86.282555207127956, 12.15284555299678 ], [ -86.282372579630689, 12.154527005773897 ], [ -86.282153031375259, 12.154721083046519 ], [ -86.282050174275227, 12.154745232923473 ], [ -86.278831330949174, 12.154587863504034 ], [ -86.27719945140403, 12.154470363285295 ], [ -86.276976669213568, 12.154499606618135 ], [ -86.276759007420239, 12.154624571334535 ], [ -86.276631536481418, 12.156072418972302 ], [ -86.276597849658259, 12.156853201371801 ], [ -86.273498572096514, 12.156425532070076 ], [ -86.274444767585294, 12.14856744732236 ], [ -86.274627305251016, 12.146931974734477 ], [ -86.274646080040455, 12.146279293398779 ], [ -86.274786576550895, 12.146244955571614 ], [ -86.274886828536609, 12.146173381825541 ], [ -86.274959502243092, 12.146025667604103 ], [ -86.27495168690011, 12.145862057761386 ], [ -86.274833648271795, 12.145702926674577 ], [ -86.274636198572338, 12.145645667562679 ], [ -86.274440725166514, 12.145719085685531 ], [ -86.274292503144636, 12.145703365778154 ], [ -86.274189735876121, 12.145672013781349 ], [ -86.27383759628475, 12.145392831551689 ], [ -86.273601968185716, 12.145296492098444 ], [ -86.273211919689359, 12.145225357201729 ], [ -86.272866607294148, 12.145219912307629 ], [ -86.272445836415073, 12.145429101546485 ], [ -86.272300399170561, 12.145564433372062 ], [ -86.272121364934435, 12.145637148951426 ], [ -86.271622530457165, 12.145669730442492 ], [ -86.271310904885112, 12.145605182201594 ], [ -86.270836684246603, 12.145389670002285 ], [ -86.270633305666308, 12.145233524542689 ], [ -86.270401540322993, 12.144948194385865 ], [ -86.270041944714762, 12.14473610667506 ], [ -86.265626635261796, 12.14397241387473 ], [ -86.264098870458085, 12.144121007447719 ], [ -86.263596263056613, 12.144063923638123 ], [ -86.263140278218401, 12.143958011183566 ], [ -86.262700463055296, 12.14393069876102 ], [ -86.262436448193284, 12.143949580339617 ], [ -86.26198639223594, 12.144063221068071 ], [ -86.26161709482264, 12.144271093897952 ], [ -86.260453327372062, 12.145282177299757 ], [ -86.260310944399535, 12.144947316176234 ], [ -86.260109272618237, 12.144299021033833 ], [ -86.259787046925837, 12.142923913487111 ], [ -86.259775728153272, 12.142151521122754 ], [ -86.259687603423885, 12.141108458543902 ], [ -86.259502280980769, 12.140039747687235 ], [ -86.259370318465542, 12.139496388817962 ], [ -86.256410728930476, 12.13902311153746 ], [ -86.253345048360359, 12.138455862711087 ], [ -86.253548337109152, 12.137207805653146 ], [ -86.253874784883408, 12.135577005799373 ], [ -86.253258271103903, 12.135970896387013 ], [ -86.253021385363482, 12.136071893879786 ], [ -86.251855012798586, 12.136739354608631 ], [ -86.251613904976338, 12.136906395176808 ], [ -86.251345847695561, 12.136943456739784 ], [ -86.251092432953897, 12.136824280084092 ], [ -86.25055497091941, 12.13573816288833 ], [ -86.250129798295433, 12.135932605153648 ], [ -86.249825179582587, 12.135951575123155 ], [ -86.246867566341166, 12.135638306981489 ], [ -86.246585136015824, 12.135666059374476 ], [ -86.245936821875276, 12.135882984625175 ], [ -86.245581628011948, 12.135923471464148 ], [ -86.245478321754277, 12.135889307949663 ], [ -86.245443826447371, 12.13579375547461 ], [ -86.245511649251299, 12.135213326146735 ], [ -86.244083866938723, 12.135000088969106 ], [ -86.244399085771917, 12.133780031786978 ], [ -86.244658339562918, 12.132519393844124 ], [ -86.244552697685506, 12.13158027881331 ], [ -86.244582611584462, 12.131151778486894 ], [ -86.244657620910687, 12.130746726919888 ], [ -86.24499637560433, 12.130219596877392 ], [ -86.245536981742319, 12.129483878979135 ], [ -86.245603726567936, 12.129446025944121 ], [ -86.244083687275676, 12.1282349894657 ], [ -86.240459613924955, 12.12547889268911 ], [ -86.240428083058475, 12.125321418149833 ], [ -86.240477220904523, 12.125173604540629 ], [ -86.240698116632871, 12.124968088156399 ], [ -86.241689407548904, 12.124163410943398 ], [ -86.241935186610647, 12.124087703357468 ], [ -86.24259661615433, 12.123534650885746 ], [ -86.242682495095494, 12.123384201444203 ], [ -86.244067068442916, 12.122205106997868 ], [ -86.243909773436656, 12.122144505354772 ], [ -86.243019542990098, 12.12118980808815 ], [ -86.240301869761055, 12.1191290731702 ], [ -86.238264580528195, 12.117520032411774 ], [ -86.238023023548308, 12.117269892453058 ], [ -86.237597401766678, 12.116673964675615 ], [ -86.233875142555405, 12.111168091193141 ], [ -86.233479793998868, 12.110797527346035 ], [ -86.232980510363959, 12.110426699487677 ], [ -86.232585700796591, 12.11020852387988 ], [ -86.232183435212349, 12.10984832293923 ], [ -86.231495685030836, 12.10914267550389 ], [ -86.231122435030287, 12.108839915819791 ], [ -86.230878362767598, 12.108780716468077 ], [ -86.228059449406018, 12.109050187595026 ], [ -86.226025034782069, 12.10934811624289 ], [ -86.22360021233564, 12.109352068713866 ], [ -86.223613597233381, 12.10877939897494 ], [ -86.223572364561832, 12.1081747567706 ], [ -86.223634797474091, 12.107671384942991 ], [ -86.223746368232369, 12.107260149393863 ], [ -86.223549008364458, 12.104717273225917 ], [ -86.228709290682545, 12.104722279775945 ] ] } },
{ "type": "Feature", "properties": { "name": "Inss Sucursal" }, "geometry": { "type": "Point", "coordinates": [ -86.274394012771737, 12.156495258898426 ] } },
{ "type": "Feature", "properties": { "name": "Cafetín Doña Chepita" }, "geometry": { "type": "Point", "coordinates": [ -86.278517279925836, 12.154527532680717 ] } },
{ "type": "Feature", "properties": { "name": "MITRAB" }, "geometry": { "type": "Point", "coordinates": [ -86.28160371157901, 12.15465337556161 ] } },
{ "type": "Feature", "properties": { "name": "MTI" }, "geometry": { "type": "Point", "coordinates": [ -86.283504187394101, 12.152156968364803 ] } },
{ "type": "Feature", "properties": { "name": "Ministerio de Hacienda y Crédito Público" }, "geometry": { "type": "Point", "coordinates": [ -86.285389212186303, 12.152211854974608 ] } },
{ "type": "Feature", "properties": { "name": "Lenín Fonseca" }, "geometry": { "type": "Point", "coordinates": [ -86.310560635268033, 12.148644816527865 ] } },
{ "type": "Feature", "properties": { "name": "INIFOM" }, "geometry": { "type": "Point", "coordinates": [ -86.310686309576283, 12.151172256751979 ] } },
{ "type": "Feature", "properties": { "name": "Centro Comercial Linda Vista" }, "geometry": { "type": "Point", "coordinates": [ -86.306379516609624, 12.152205005126328 ] } },
{ "type": "Feature", "properties": { "name": "Tropigas" }, "geometry": { "type": "Point", "coordinates": [ -86.304413104452692, 12.153135616873413 ] } },
{ "type": "Feature", "properties": { "name": "Farmacia Cabler" }, "geometry": { "type": "Point", "coordinates": [ -86.304251317870026, 12.156260347911337 ] } },
{ "type": "Feature", "properties": { "name": "Casa Pellas" }, "geometry": { "type": "Point", "coordinates": [ -86.300069121233278, 12.157947926270554 ] } },
{ "type": "Feature", "properties": { "name": "Pulpería Doña Tere" }, "geometry": { "type": "Point", "coordinates": [ -86.297051680193903, 12.157514901903427 ] } },
{ "type": "Feature", "properties": { "name": "Leche Agria El Ternero" }, "geometry": { "type": "Point", "coordinates": [ -86.296123181516236, 12.154669973117862 ] } },
{ "type": "Feature", "properties": { "name": "Pulpería El Carmen" }, "geometry": { "type": "Point", "coordinates": [ -86.291370015684905, 12.152477506006052 ] } },
{ "type": "Feature", "properties": { "name": "El Redentor" }, "geometry": { "type": "Point", "coordinates": [ -86.267135176118416, 12.144169396944424 ] } },
{ "type": "Feature", "properties": { "name": "Funeraria La Católica y La Auxiliadora" }, "geometry": { "type": "Point", "coordinates": [ -86.261567417987436, 12.144194425991003 ] } },
{ "type": "Feature", "properties": { "name": "Disco Bar Santo Domingo" }, "geometry": { "type": "Point", "coordinates": [ -86.259644124964126, 12.140405704135159 ] } },
{ "type": "Feature", "properties": { "name": "PMS Construcciones" }, "geometry": { "type": "Point", "coordinates": [ -86.256691721951341, 12.139006425182654 ] } },
{ "type": "Feature", "properties": { "name": "Los Paisas" }, "geometry": { "type": "Point", "coordinates": [ -86.253824119901381, 12.138502496775367 ] } },
{ "type": "Feature", "properties": { "name": "Variedades Molina" }, "geometry": { "type": "Point", "coordinates": [ -86.25365640443782, 12.136957332868672 ] } },
{ "type": "Feature", "properties": { "name": "Autolote El Chele" }, "geometry": { "type": "Point", "coordinates": [ -86.25083147236387, 12.136248771135769 ] } },
{ "type": "Feature", "properties": { "name": "Farmacia Salazar" }, "geometry": { "type": "Point", "coordinates": [ -86.249961633674246, 12.135902481541882 ] } },
{ "type": "Feature", "properties": { "name": "Farmacia Cáceres" }, "geometry": { "type": "Point", "coordinates": [ -86.24602800087662, 12.135830465896461 ] } },
{ "type": "Feature", "properties": { "name": "Video Club" }, "geometry": { "type": "Point", "coordinates": [ -86.244189688479196, 12.13496302713582 ] } },
{ "type": "Feature", "properties": { "name": "Parque 10 de Junio" }, "geometry": { "type": "Point", "coordinates": [ -86.244700021392106, 12.132395384829255 ] } },
{ "type": "Feature", "properties": { "name": "Audi Huembes" }, "geometry": { "type": "Point", "coordinates": [ -86.241791905322813, 12.126369724319042 ] } },
{ "type": "Feature", "properties": { "name": "Huembes Sureste" }, "geometry": { "type": "Point", "coordinates": [ -86.242264598825329, 12.123871998099162 ] } },
{ "type": "Feature", "properties": { "name": "Tecnológico Central" }, "geometry": { "type": "Point", "coordinates": [ -86.243465646360207, 12.121571775233461 ] } },
{ "type": "Feature", "properties": { "name": "Sport Gym La Fuente" }, "geometry": { "type": "Point", "coordinates": [ -86.239359626859539, 12.118325520130867 ] } },
{ "type": "Feature", "properties": { "name": "Pulpería Josseling" }, "geometry": { "type": "Point", "coordinates": [ -86.23707018052643, 12.11576597370709 ] } },
{ "type": "Feature", "properties": { "name": "Colegio Salomón Ibarra" }, "geometry": { "type": "Point", "coordinates": [ -86.224995745129519, 12.10929945692865 ] } },
{ "type": "Feature", "properties": { "name": "El Pescadito" }, "geometry": { "type": "Point", "coordinates": [ -86.223678545428427, 12.109198976295032 ] } },
{ "type": "Feature", "properties": { "name": "Pollo El Chino" }, "geometry": { "type": "Point", "coordinates": [ -86.223674233515055, 12.105435404777808 ] } },
{ "type": "Feature", "properties": { "name": "Farmacia Balgar" }, "geometry": { "type": "Point", "coordinates": [ -86.223702081288863, 12.107754211676051 ] } },
{ "type": "Feature", "properties": { "name": "Enrique de Osso" }, "geometry": { "type": "Point", "coordinates": [ -86.225672985022229, 12.104755129768586 ] } },
{ "type": "Feature", "properties": { "name": "Terminal Reparto Schick" }, "geometry": { "type": "Point", "coordinates": [ -86.228705697421404, 12.104765494203935 ] } },
{ "type": "Feature", "properties": { "name": "Escuela Adventista" }, "geometry": { "type": "Point", "coordinates": [ -86.227600769621944, 12.109049397099939 ] } },
{ "type": "Feature", "properties": { "name": "Farmacia Massleo" }, "geometry": { "type": "Point", "coordinates": [ -86.236340029863513, 12.114707613146591 ] } },
{ "type": "Feature", "properties": { "name": "Empalme" }, "geometry": { "type": "Point", "coordinates": [ -86.232066923719998, 12.109619694779708 ] } },
{ "type": "Feature", "properties": { "name": "Farmacia Rossy" }, "geometry": { "type": "Point", "coordinates": [ -86.23428791842845, 12.111666362177797 ] } },
{ "type": "Feature", "properties": { "name": "Cancillería" }, "geometry": { "type": "Point", "coordinates": [ -86.274049419028742, 12.153205608018798 ] } },
{ "type": "Feature", "properties": { "name": "Estadio Dennis Martínez" }, "geometry": { "type": "Point", "coordinates": [ -86.282290922771367, 12.152378710198887 ] } },
{ "type": "Feature", "properties": { "name": "Colegio República de Colombia" }, "geometry": { "type": "Point", "coordinates": [ -86.245242963149821, 12.129970259261571 ] } }
]
}
