{
"type": "FeatureCollection",
                                                                                
"features": [
{ "type": "Feature", "properties": { "name": null }, "geometry": { "type": "LineString", "coordinates": [ [ -86.188680900611359, 12.162407219535366 ], [ -86.188423084124807, 12.162390622461997 ], [ -86.188045522210899, 12.160762874825094 ], [ -86.187908169803961, 12.158791052811607 ], [ -86.188105619503403, 12.157540895679681 ], [ -86.188371610659033, 12.156550759333122 ], [ -86.188749262404471, 12.155501957230083 ], [ -86.188869546821024, 12.154780360013323 ], [ -86.189431263368178, 12.148619085341691 ], [ -86.189633294475584, 12.147994598350859 ], [ -86.189714771671845, 12.147469610122471 ], [ -86.195209945927871, 12.148036576287618 ], [ -86.209740644806132, 12.149373455944419 ], [ -86.221072622620724, 12.150366253577806 ], [ -86.221661737784061, 12.150393214063374 ], [ -86.221863589228377, 12.150476554439654 ], [ -86.223428993442496, 12.150659657282151 ], [ -86.223581886703855, 12.150690569596124 ], [ -86.223754812396052, 12.150812989349726 ], [ -86.223981277679158, 12.150857952688426 ], [ -86.224548384118037, 12.150797357562237 ], [ -86.225672985022229, 12.150865066028409 ], [ -86.226010571906002, 12.15086778841774 ], [ -86.22615762611801, 12.150833099906444 ], [ -86.238761708206425, 12.151984931701666 ], [ -86.238752814885132, 12.151874016734311 ], [ -86.238925381251192, 12.151032449010957 ], [ -86.239137383658246, 12.150622597628272 ], [ -86.239584834501272, 12.150082509669767 ], [ -86.239895292263469, 12.149766974847921 ], [ -86.240547648822798, 12.149229871017736 ], [ -86.240925300568236, 12.14884399163218 ], [ -86.241131284262892, 12.148097172042387 ], [ -86.241287680953846, 12.145593150759041 ], [ -86.241435363986568, 12.144690703197005 ], [ -86.242263790341582, 12.141757288386156 ], [ -86.242459443410453, 12.140940191098766 ], [ -86.242650515071375, 12.140637555332273 ], [ -86.242914440101856, 12.140484919983534 ], [ -86.244504368323234, 12.139999876232006 ], [ -86.248169404850913, 12.138811809514792 ], [ -86.249542030605042, 12.138213558656291 ], [ -86.250358419535246, 12.13776697739068 ], [ -86.252299050043533, 12.136623690810003 ], [ -86.252887177060046, 12.136252459736683 ], [ -86.253258271103903, 12.135970896387013 ], [ -86.254300496496555, 12.135313621333545 ], [ -86.254732047159038, 12.134962500190287 ], [ -86.256015380373938, 12.133614745752912 ], [ -86.25637964722165, 12.133351095873243 ], [ -86.257039908955463, 12.133012618929818 ], [ -86.257336802156871, 12.132913815900823 ], [ -86.257416842048698, 12.132943764200594 ], [ -86.257556170749254, 12.132930151337476 ], [ -86.257785151315176, 12.132839076874109 ], [ -86.257908400172155, 12.132647003627071 ], [ -86.258331686334046, 12.132305100609354 ], [ -86.25888720450574, 12.132052691061817 ], [ -86.260634607396412, 12.131416484447264 ], [ -86.262190938626134, 12.130574852077215 ], [ -86.262921448615188, 12.130242431589272 ], [ -86.264543626355248, 12.129705376213094 ], [ -86.265599326477144, 12.129394911164432 ], [ -86.2658053101718, 12.129378048554543 ], [ -86.266211708006324, 12.129540965912698 ], [ -86.266446347958549, 12.129537277218912 ], [ -86.266572022266786, 12.129477818980847 ], [ -86.266683413362017, 12.129370056379694 ], [ -86.266767046514971, 12.129124670147407 ], [ -86.267047500546681, 12.128952179475277 ], [ -86.267503395553376, 12.128749388618719 ], [ -86.268511844291325, 12.12840800756033 ], [ -86.269469268721139, 12.127992851771138 ], [ -86.272519677931427, 12.126113971719475 ], [ -86.273524982565874, 12.125459658492135 ], [ -86.274728006394355, 12.124752822748221 ], [ -86.275260887020906, 12.124491359797227 ], [ -86.276100991474635, 12.124266257293129 ], [ -86.276706905133764, 12.124273546998738 ], [ -86.277284701524508, 12.124336870818574 ], [ -86.27883016313929, 12.124741229502213 ], [ -86.28175974894387, 12.12523517159755 ], [ -86.281863145033086, 12.125286989794223 ], [ -86.282565088596101, 12.125432168518726 ], [ -86.282771611279898, 12.125506821794568 ], [ -86.282860274998455, 12.125626179165113 ], [ -86.283170463266046, 12.125706014197705 ], [ -86.28342612379592, 12.125723316176325 ], [ -86.283600666455612, 12.125649453407005 ], [ -86.283940049969956, 12.125640055883155 ], [ -86.28635975201928, 12.125862785891851 ], [ -86.288749989327258, 12.125999796372614 ], [ -86.291831210751781, 12.126032468092252 ], [ -86.292547437527801, 12.126014287861647 ], [ -86.294094965267774, 12.125953511429616 ], [ -86.2963949218897, 12.125758271439329 ], [ -86.299444971773852, 12.125358832633287 ], [ -86.300936444640087, 12.125123455044388 ], [ -86.302527091513667, 12.12479190603597 ], [ -86.304085129542457, 12.12442136110678 ], [ -86.305886072024052, 12.123924255700137 ], [ -86.308547241221717, 12.123080316148751 ], [ -86.30957176980327, 12.122843267812314 ], [ -86.310229067096657, 12.122787760353706 ], [ -86.310603035749438, 12.122788023838503 ], [ -86.311196283163071, 12.12285942820948 ], [ -86.311778121972594, 12.12296148460814 ], [ -86.312690630638201, 12.123261593430248 ], [ -86.312939194477309, 12.123598414021009 ], [ -86.312984379736108, 12.123752200803809 ], [ -86.312442695619794, 12.125173516713149 ], [ -86.311167087916346, 12.128965704715311 ], [ -86.310967033102571, 12.129304801580494 ], [ -86.310908193451453, 12.129467982461598 ], [ -86.310634476784386, 12.130336668667974 ], [ -86.310596927205495, 12.130596457198946 ], [ -86.309320241523707, 12.134082763168006 ], [ -86.308631862521494, 12.135884565456319 ], [ -86.308387700427275, 12.136311828639556 ], [ -86.308135363663965, 12.136698867893635 ], [ -86.307825085564829, 12.137048230277351 ], [ -86.307345475034637, 12.137469080484191 ], [ -86.307345385203107, 12.137549790203721 ], [ -86.307616047598216, 12.137858401462932 ], [ -86.307712706322789, 12.138047572786572 ], [ -86.307753579668216, 12.138306475568891 ], [ -86.307729235324018, 12.139444573383818 ], [ -86.307598799944742, 12.139905818215949 ], [ -86.307435665889159, 12.140333777529595 ], [ -86.307203990377388, 12.140694552053981 ], [ -86.30518700306996, 12.143371276499375 ], [ -86.304946613899929, 12.143757251639206 ], [ -86.304888942058668, 12.144255988653427 ], [ -86.304821029423195, 12.145515692845795 ], [ -86.304510571661012, 12.152750270061869 ], [ -86.304899811673621, 12.152681771709684 ], [ -86.310962990683777, 12.151177701524329 ], [ -86.313485819327695, 12.150606351095909 ], [ -86.316858813556522, 12.149733164386976 ] ] } },
{ "type": "Feature", "properties": { "name": "Terminal 114" }, "geometry": { "type": "Point", "coordinates": [ -86.188687817639035, 12.162369019920499 ] } },
{ "type": "Feature", "properties": { "name": "Cancha Benito Escobar" }, "geometry": { "type": "Point", "coordinates": [ -86.188314477806955, 12.161827199504826 ] } },
{ "type": "Feature", "properties": { "name": "Colegio Las Américas" }, "geometry": { "type": "Point", "coordinates": [ -86.188033484786089, 12.159913431782327 ] } },
{ "type": "Feature", "properties": { "name": "El Molino" }, "geometry": { "type": "Point", "coordinates": [ -86.188265339960935, 12.15716512729532 ] } },
{ "type": "Feature", "properties": { "name": "Transagro" }, "geometry": { "type": "Point", "coordinates": [ -86.18890979134575, 12.15492367849181 ] } },
{ "type": "Feature", "properties": { "name": "Palí" }, "geometry": { "type": "Point", "coordinates": [ -86.189217733825146, 12.151519492494513 ] } },
{ "type": "Feature", "properties": { "name": "Entrada a Las Mercedes" }, "geometry": { "type": "Point", "coordinates": [ -86.190031607472548, 12.14762048506563 ] } },
{ "type": "Feature", "properties": { "name": "Subasta" }, "geometry": { "type": "Point", "coordinates": [ -86.193191521315967, 12.147909500797681 ] } },
{ "type": "Feature", "properties": { "name": "Veterinaria Antares" }, "geometry": { "type": "Point", "coordinates": [ -86.197413692982863, 12.148280803441063 ] } },
{ "type": "Feature", "properties": { "name": "La Rocargo" }, "geometry": { "type": "Point", "coordinates": [ -86.199881993889051, 12.148561212118677 ] } },
{ "type": "Feature", "properties": { "name": "Autolavado El Gato" }, "geometry": { "type": "Point", "coordinates": [ -86.202528251052996, 12.148794724788234 ] } },
{ "type": "Feature", "properties": { "name": "Gasolinera UNO" }, "geometry": { "type": "Point", "coordinates": [ -86.208234080243145, 12.149303288152007 ] } },
{ "type": "Feature", "properties": { "name": "Ecasa" }, "geometry": { "type": "Point", "coordinates": [ -86.211895164183574, 12.149634982296844 ] } },
{ "type": "Feature", "properties": { "name": "Siemens" }, "geometry": { "type": "Point", "coordinates": [ -86.217424384588853, 12.150111314388557 ] } },
{ "type": "Feature", "properties": { "name": "La Danto" }, "geometry": { "type": "Point", "coordinates": [ -86.220067946806978, 12.150356856925834 ] } },
{ "type": "Feature", "properties": { "name": "Sucursal Norte - DISSUR" }, "geometry": { "type": "Point", "coordinates": [ -86.223262086462725, 12.15068038258396 ] } },
{ "type": "Feature", "properties": { "name": "Nabisco" }, "geometry": { "type": "Point", "coordinates": [ -86.226015871966169, 12.150879292707831 ] } },
{ "type": "Feature", "properties": { "name": "Grupo Q" }, "geometry": { "type": "Point", "coordinates": [ -86.231053534247991, 12.151340693367537 ] } },
{ "type": "Feature", "properties": { "name": "Bar El Trebol" }, "geometry": { "type": "Point", "coordinates": [ -86.236133507179687, 12.151827560649521 ] } },
{ "type": "Feature", "properties": { "name": "El Puente" }, "geometry": { "type": "Point", "coordinates": [ -86.24125264665777, 12.147237062312675 ] } },
{ "type": "Feature", "properties": { "name": "Iglesia de Dios" }, "geometry": { "type": "Point", "coordinates": [ -86.245640647326113, 12.139694780361603 ] } },
{ "type": "Feature", "properties": { "name": "Ignacio Loyola" }, "geometry": { "type": "Point", "coordinates": [ -86.249361648895984, 12.138400095034063 ] } },
{ "type": "Feature", "properties": { "name": "Bypass" }, "geometry": { "type": "Point", "coordinates": [ -86.254727286088041, 12.135068064924813 ] } },
{ "type": "Feature", "properties": { "name": "UENIC" }, "geometry": { "type": "Point", "coordinates": [ -86.261501930803234, 12.131077126791634 ] } },
{ "type": "Feature", "properties": { "name": "Metrocentro Norte" }, "geometry": { "type": "Point", "coordinates": [ -86.265120883756836, 12.129621678033317 ] } },
{ "type": "Feature", "properties": { "name": "UCA" }, "geometry": { "type": "Point", "coordinates": [ -86.271601779374095, 12.126810264622815 ] } },
{ "type": "Feature", "properties": { "name": "ENEL Central" }, "geometry": { "type": "Point", "coordinates": [ -86.276817038587581, 12.124383156042146 ] } },
{ "type": "Feature", "properties": { "name": "Gasolinera Puma" }, "geometry": { "type": "Point", "coordinates": [ -86.284556473917931, 12.125727531886687 ] } },
{ "type": "Feature", "properties": { "name": "Julio Martínez" }, "geometry": { "type": "Point", "coordinates": [ -86.288232110565957, 12.126064876326316 ] } },
{ "type": "Feature", "properties": { "name": "El Zumen" }, "geometry": { "type": "Point", "coordinates": [ -86.296396269362631, 12.125815007861492 ] } },
{ "type": "Feature", "properties": { "name": "Mercado Israel Lewites Sur" }, "geometry": { "type": "Point", "coordinates": [ -86.299825408296684, 12.125399584552959 ] } },
{ "type": "Feature", "properties": { "name": "Centro Comercial Nejapa" }, "geometry": { "type": "Point", "coordinates": [ -86.304041291756576, 12.124486968411917 ] } },
{ "type": "Feature", "properties": { "name": "7 Sur" }, "geometry": { "type": "Point", "coordinates": [ -86.311112739841647, 12.122921083628837 ] } },
{ "type": "Feature", "properties": { "name": "Velez Páiz" }, "geometry": { "type": "Point", "coordinates": [ -86.3116016928508, 12.127502515679161 ] } },
{ "type": "Feature", "properties": { "name": "Embajada de EE.UU." }, "geometry": { "type": "Point", "coordinates": [ -86.310286469443312, 12.131002650726579 ] } },
{ "type": "Feature", "properties": { "name": "ENACAL" }, "geometry": { "type": "Point", "coordinates": [ -86.307471418837466, 12.14005792696109 ] } },
{ "type": "Feature", "properties": { "name": "Ferretería 35 Avenida" }, "geometry": { "type": "Point", "coordinates": [ -86.304850943322165, 12.143774552445791 ] } },
{ "type": "Feature", "properties": { "name": "Universidad Paulo Freire" }, "geometry": { "type": "Point", "coordinates": [ -86.304725179182398, 12.145838082719612 ] } },
{ "type": "Feature", "properties": { "name": "Asados El Toro" }, "geometry": { "type": "Point", "coordinates": [ -86.304477603490085, 12.151619781539658 ] } },
{ "type": "Feature", "properties": { "name": "Centro Comercial Linda Vista" }, "geometry": { "type": "Point", "coordinates": [ -86.305971771302168, 12.152491381325374 ] } },
{ "type": "Feature", "properties": { "name": "Manuel Olivares" }, "geometry": { "type": "Point", "coordinates": [ -86.309127283400684, 12.151698818413758 ] } },
{ "type": "Feature", "properties": { "name": "Clínica Bethel" }, "geometry": { "type": "Point", "coordinates": [ -86.313224679074622, 12.150727980516759 ] } },
{ "type": "Feature", "properties": { "name": "Terminal 119" }, "geometry": { "type": "Point", "coordinates": [ -86.316879025650408, 12.149818612634512 ] } }
]
}
