{
"type": "FeatureCollection",
                                                                                
"features": [
{ "type": "Feature", "properties": { "name": null }, "geometry": { "type": "LineString", "coordinates": [ [ -86.214163949265142, 12.128017618857717 ], [ -86.213278479889581, 12.127927157501976 ], [ -86.212880975376365, 12.129978602722019 ], [ -86.212936042103294, 12.131093023213195 ], [ -86.212874238011736, 12.131428780006386 ], [ -86.21269125118836, 12.131757686002386 ], [ -86.212220174653353, 12.13245027551223 ], [ -86.212063149141713, 12.132982670637785 ], [ -86.212022814785456, 12.133473347948485 ], [ -86.212112376819263, 12.133769405004658 ], [ -86.212344231994095, 12.133920375533497 ], [ -86.212527578143593, 12.133975968499016 ], [ -86.217068202578716, 12.134125094595673 ], [ -86.216905517680757, 12.136881189798103 ], [ -86.216837784708332, 12.137085291820583 ], [ -86.215905333443402, 12.138488357257684 ], [ -86.215656589941247, 12.138963304124109 ], [ -86.215349725440191, 12.140666624540087 ], [ -86.215577717859304, 12.140734774694634 ], [ -86.218112943254127, 12.141804887914398 ], [ -86.218556621172965, 12.141912294198724 ], [ -86.221015849094769, 12.141901228630948 ], [ -86.221576577495114, 12.141950760216417 ], [ -86.22214386359704, 12.142084073906007 ], [ -86.223806645187935, 12.142725875635692 ], [ -86.224143423587961, 12.143068467852421 ], [ -86.224186273227005, 12.143236294845172 ], [ -86.224301347414908, 12.143413255165145 ], [ -86.224435196392236, 12.143513195978738 ], [ -86.224615398438218, 12.143571860691932 ], [ -86.224851385863388, 12.143563254192895 ], [ -86.225216281531786, 12.14340412173215 ], [ -86.225396483577768, 12.143387260008874 ], [ -86.22561109109914, 12.143429326493585 ], [ -86.226158524433288, 12.143714482635342 ], [ -86.227467010476147, 12.144814091741152 ], [ -86.227852297901492, 12.145040933306941 ], [ -86.228366044412496, 12.145175914046277 ], [ -86.228845205785049, 12.145169766584035 ], [ -86.231593511565265, 12.14542242716526 ], [ -86.233370199534193, 12.145619321341414 ], [ -86.233616607416636, 12.14566639325492 ], [ -86.233705181303648, 12.14574130432397 ], [ -86.233709313553959, 12.145822362819271 ], [ -86.233766626069084, 12.145927747608331 ], [ -86.233900834372534, 12.145997828469948 ], [ -86.233982401400326, 12.145996686801931 ], [ -86.234131791232087, 12.145926079016167 ], [ -86.234505400558746, 12.145946892507199 ], [ -86.234863648694045, 12.146039104156761 ], [ -86.236049335037563, 12.146227918387174 ], [ -86.238926189734954, 12.146577092629759 ], [ -86.239239881432169, 12.146583064418657 ], [ -86.239618611155962, 12.146513861915572 ], [ -86.240293784923495, 12.146243023519819 ], [ -86.240815346777467, 12.14612938372178 ], [ -86.241358019040604, 12.146116913200039 ], [ -86.242341135287532, 12.146204558122207 ], [ -86.243991340464461, 12.146288778015236 ], [ -86.243889651174314, 12.148699528222593 ], [ -86.243760922594092, 12.150495084277402 ], [ -86.246215569107946, 12.150578951536394 ], [ -86.247065734692825, 12.150815184825428 ], [ -86.248557027895998, 12.150815184825428 ], [ -86.249111468089353, 12.150762932498894 ], [ -86.249136800580374, 12.149331126940449 ], [ -86.249156922842744, 12.149122467685551 ], [ -86.24923166267439, 12.148866561288479 ], [ -86.249453366886499, 12.14842974588851 ], [ -86.249767507741339, 12.148055457575005 ], [ -86.250405401424615, 12.147386180984467 ], [ -86.25060087483044, 12.146999508543429 ], [ -86.250718104975007, 12.146553732395427 ], [ -86.250783232833101, 12.145600352060484 ], [ -86.250887886563703, 12.145351819227184 ], [ -86.251040600162014, 12.145201996848801 ], [ -86.251348901967518, 12.145123924075417 ], [ -86.251894718334157, 12.145079574514522 ], [ -86.252143551667842, 12.145124451000836 ], [ -86.253536569178934, 12.14555178718232 ], [ -86.253715962741182, 12.145082384783953 ], [ -86.253801931513863, 12.144939763573264 ], [ -86.253998393066496, 12.144798371780352 ], [ -86.254847031515411, 12.144589357688066 ], [ -86.257252270688639, 12.144176159178295 ], [ -86.257612764612148, 12.144016763620032 ], [ -86.258041799991844, 12.143671801446009 ], [ -86.258816417261329, 12.144282949757894 ], [ -86.259872746203939, 12.144999306181596 ], [ -86.26025479969428, 12.14529745812777 ], [ -86.260345709201033, 12.145335396731435 ], [ -86.260453327372062, 12.145282177299757 ], [ -86.26161709482264, 12.144271093897952 ], [ -86.26198639223594, 12.144063221068071 ], [ -86.262436448193284, 12.143949580339617 ], [ -86.262700463055296, 12.14393069876102 ], [ -86.263140278218401, 12.143958011183566 ], [ -86.263596263056613, 12.144063923638123 ], [ -86.263221126593962, 12.145502871012184 ], [ -86.266109479727007, 12.145442713770858 ], [ -86.266487670461615, 12.144109063759341 ], [ -86.270041944714762, 12.14473610667506 ], [ -86.270401540322993, 12.144948194385865 ], [ -86.270633305666308, 12.145233524542689 ], [ -86.270836684246603, 12.145389670002285 ], [ -86.271310904885112, 12.145605182201594 ], [ -86.271622530457165, 12.145669730442492 ], [ -86.272121364934435, 12.145637148951426 ], [ -86.272484913129929, 12.14550146587969 ], [ -86.272851246102775, 12.145296492098444 ], [ -86.273464885273356, 12.145362796830714 ], [ -86.273631343095531, 12.145409868789576 ], [ -86.273862030460478, 12.145537033293531 ], [ -86.274139699714809, 12.14581217562079 ], [ -86.27441269772963, 12.146166883104085 ], [ -86.274646080040455, 12.146279293398779 ], [ -86.274786576550895, 12.146244955571614 ], [ -86.275174828416695, 12.146015392592785 ], [ -86.275804008441696, 12.145776959526463 ], [ -86.277847675713062, 12.146113488197479 ], [ -86.285695807192766, 12.147547330927507 ], [ -86.285955420309861, 12.147519404132378 ], [ -86.286347534931394, 12.147415776376416 ], [ -86.286648021393944, 12.147293969801519 ], [ -86.287813405812017, 12.146671675211708 ], [ -86.292474404495209, 12.143105089450131 ], [ -86.292448802509611, 12.143021571122823 ], [ -86.292458594146211, 12.14254206476198 ], [ -86.292614721342588, 12.139268576478019 ], [ -86.292601965265561, 12.139178821524197 ], [ -86.292447634699741, 12.139049809702954 ], [ -86.292380889874138, 12.138946793411453 ], [ -86.292420146252041, 12.138302260057481 ], [ -86.292861308888078, 12.134532775760279 ], [ -86.292963986325063, 12.133722682287305 ], [ -86.293004051186728, 12.133663751930989 ], [ -86.293100799742817, 12.133650314754016 ], [ -86.294495613884479, 12.133823417158306 ], [ -86.294661892043564, 12.133802427070625 ], [ -86.294881799625131, 12.132160803879191 ], [ -86.294930128987403, 12.132103102730291 ], [ -86.295026697880445, 12.132061210107508 ], [ -86.296666213105496, 12.132213850282078 ], [ -86.296933192407934, 12.129533764177149 ], [ -86.29936223693619, 12.129777217861678 ], [ -86.300343376889501, 12.129759389190301 ], [ -86.300552145361536, 12.12980400477948 ], [ -86.301186894941296, 12.130187189148335 ], [ -86.301384973461452, 12.130009517436356 ], [ -86.30154756852788, 12.129543512867924 ], [ -86.301597604689192, 12.129107631868065 ], [ -86.301599131825185, 12.128788295668128 ], [ -86.301421984051146, 12.127458865798848 ], [ -86.301007142052953, 12.125108524369416 ], [ -86.302527091513667, 12.12479190603597 ], [ -86.304085129542457, 12.12442136110678 ], [ -86.305886072024052, 12.123924255700137 ], [ -86.308547241221717, 12.123080316148751 ], [ -86.30957176980327, 12.122843267812314 ], [ -86.310229067096657, 12.122787760353706 ], [ -86.310603035749438, 12.122788023838503 ], [ -86.311557316075749, 12.12291405737094 ], [ -86.312488240204686, 12.123192999667188 ], [ -86.313101699712206, 12.123419420497958 ], [ -86.315325928355705, 12.116938070193788 ], [ -86.315527240810866, 12.116020418769612 ], [ -86.315516101701363, 12.115765885876518 ], [ -86.315675373001213, 12.114783499055903 ], [ -86.315792692977325, 12.113234069633371 ], [ -86.314671685334275, 12.113164419315464 ], [ -86.314141679316648, 12.113005532204463 ], [ -86.313739773058529, 12.113047866977386 ], [ -86.311340193271576, 12.113122611549702 ], [ -86.311303092850352, 12.112282326768687 ], [ -86.311329593151243, 12.109949154658491 ], [ -86.311286743512184, 12.108522487688424 ], [ -86.311157386111262, 12.108262589831215 ], [ -86.310658551633992, 12.107685701760833 ], [ -86.310325995315807, 12.10721886770402 ], [ -86.309892019202053, 12.10673385128726 ], [ -86.309424715591263, 12.10595994876666 ], [ -86.309141027624548, 12.105354509673784 ], [ -86.309055148683385, 12.105034530211192 ], [ -86.309065928466779, 12.104913846119995 ], [ -86.308517686648884, 12.103639018263799 ], [ -86.307874043747802, 12.101574458802773 ], [ -86.307728067514148, 12.100861059989567 ], [ -86.307839728103957, 12.099241368837411 ], [ -86.306899730990665, 12.097106330368508 ], [ -86.306501777319781, 12.095922464522497 ], [ -86.306483092361887, 12.095636378926661 ] ] } },
{ "type": "Feature", "properties": { "name": "Barrio Germán Pomares" }, "geometry": { "type": "Point", "coordinates": [ -86.311235719204049, 12.108313796492231 ] } },
{ "type": "Feature", "properties": { "name": "Plazoleta Camilo Ortega" }, "geometry": { "type": "Point", "coordinates": [ -86.30718584440865, 12.094730161034905 ] } },
{ "type": "Feature", "properties": { "name": "Campo de béisbol" }, "geometry": { "type": "Point", "coordinates": [ -86.309669506506182, 12.106300831540116 ] } },
{ "type": "Feature", "properties": { "name": "Pre-escolar Hossana" }, "geometry": { "type": "Point", "coordinates": [ -86.308360391642637, 12.102916929317114 ] } },
{ "type": "Feature", "properties": { "name": "La Cooperativa" }, "geometry": { "type": "Point", "coordinates": [ -86.30781080235181, 12.10026079164774 ] } },
{ "type": "Feature", "properties": { "name": "Centro Kairos" }, "geometry": { "type": "Point", "coordinates": [ -86.31156782636458, 12.113030212850907 ] } },
{ "type": "Feature", "properties": { "name": "Parque" }, "geometry": { "type": "Point", "coordinates": [ -86.31399740988202, 12.112966008032805 ] } },
{ "type": "Feature", "properties": { "name": "Entrada a San Patricio" }, "geometry": { "type": "Point", "coordinates": [ -86.315618779138319, 12.113192086215662 ] } },
{ "type": "Feature", "properties": { "name": "Puente" }, "geometry": { "type": "Point", "coordinates": [ -86.31434541722308, 12.119960553475805 ] } },
{ "type": "Feature", "properties": { "name": "7 Sur" }, "geometry": { "type": "Point", "coordinates": [ -86.311112739841647, 12.122921083628837 ] } },
{ "type": "Feature", "properties": { "name": "Centro Comercial Nejapa" }, "geometry": { "type": "Point", "coordinates": [ -86.304041291756576, 12.124486968411917 ] } },
{ "type": "Feature", "properties": { "name": "Mercado Israel Lewites Oeste" }, "geometry": { "type": "Point", "coordinates": [ -86.301403299093238, 12.127076380123546 ] } },
{ "type": "Feature", "properties": { "name": "Bomberos Palo Alto" }, "geometry": { "type": "Point", "coordinates": [ -86.30037544674515, 12.129811557811545 ] } },
{ "type": "Feature", "properties": { "name": "Colegio Madre del Divino Pastor" }, "geometry": { "type": "Point", "coordinates": [ -86.297127048846249, 12.129597262399837 ] } },
{ "type": "Feature", "properties": { "name": "Palí" }, "geometry": { "type": "Point", "coordinates": [ -86.295448816232451, 12.132144819696116 ] } },
{ "type": "Feature", "properties": { "name": "Ferretería Avilés" }, "geometry": { "type": "Point", "coordinates": [ -86.292826364423533, 12.135284200245 ] } },
{ "type": "Feature", "properties": { "name": "Panadería Levi" }, "geometry": { "type": "Point", "coordinates": [ -86.292527135602384, 12.137897658475682 ] } },
{ "type": "Feature", "properties": { "name": "Pulpería Nanda" }, "geometry": { "type": "Point", "coordinates": [ -86.292614541679541, 12.140422126934929 ] } },
{ "type": "Feature", "properties": { "name": "Fósforera" }, "geometry": { "type": "Point", "coordinates": [ -86.291251617730452, 12.144120480520302 ] } },
{ "type": "Feature", "properties": { "name": "Budget" }, "geometry": { "type": "Point", "coordinates": [ -86.289192499436211, 12.145733224819306 ] } },
{ "type": "Feature", "properties": { "name": "Licuados Amanda" }, "geometry": { "type": "Point", "coordinates": [ -86.287486508880136, 12.146928374101789 ] } },
{ "type": "Feature", "properties": { "name": "Estadio Cranshaw" }, "geometry": { "type": "Point", "coordinates": [ -86.283552516756401, 12.147228807212972 ] } },
{ "type": "Feature", "properties": { "name": "INSS" }, "geometry": { "type": "Point", "coordinates": [ -86.277968319455724, 12.14620227478793 ] } },
{ "type": "Feature", "properties": { "name": "Plaza Inter" }, "geometry": { "type": "Point", "coordinates": [ -86.273691709882613, 12.14550691076804 ] } },
{ "type": "Feature", "properties": { "name": "El Redentor" }, "geometry": { "type": "Point", "coordinates": [ -86.266723388392165, 12.144218401180773 ] } },
{ "type": "Feature", "properties": { "name": "El Panal" }, "geometry": { "type": "Point", "coordinates": [ -86.263352190793924, 12.145596400126792 ] } },
{ "type": "Feature", "properties": { "name": "Policía Nacional Distrito IV" }, "geometry": { "type": "Point", "coordinates": [ -86.260856581103113, 12.145000272212004 ] } },
{ "type": "Feature", "properties": { "name": "Boutique Inter Fashion" }, "geometry": { "type": "Point", "coordinates": [ -86.256148151372926, 12.144406689775582 ] } },
{ "type": "Feature", "properties": { "name": "Supermercado La Colonia" }, "geometry": { "type": "Point", "coordinates": [ -86.253635204197138, 12.145380185353805 ] } },
{ "type": "Feature", "properties": { "name": "Profamilia" }, "geometry": { "type": "Point", "coordinates": [ -86.25153197862241, 12.14513700938998 ] } },
{ "type": "Feature", "properties": { "name": "Hospital Solidaridad" }, "geometry": { "type": "Point", "coordinates": [ -86.2493990188118, 12.14862338850952 ] } },
{ "type": "Feature", "properties": { "name": "CECNA" }, "geometry": { "type": "Point", "coordinates": [ -86.245936462549182, 12.150627778954602 ] } },
{ "type": "Feature", "properties": { "name": "Farmacia Potenza" }, "geometry": { "type": "Point", "coordinates": [ -86.243921182040779, 12.150529070279775 ] } },
{ "type": "Feature", "properties": { "name": "Auto Servicios Pacheco" }, "geometry": { "type": "Point", "coordinates": [ -86.243888124038321, 12.147206676518895 ] } },
{ "type": "Feature", "properties": { "name": "Sellos de Hule" }, "geometry": { "type": "Point", "coordinates": [ -86.242625182580369, 12.146269194038313 ] } },
{ "type": "Feature", "properties": { "name": "EL Colonial" }, "geometry": { "type": "Point", "coordinates": [ -86.237888994907919, 12.146472586302357 ] } },
{ "type": "Feature", "properties": { "name": "Parque Amistad" }, "geometry": { "type": "Point", "coordinates": [ -86.23193181710127, 12.145563116060661 ] } },
{ "type": "Feature", "properties": { "name": "Iglesia Pio X" }, "geometry": { "type": "Point", "coordinates": [ -86.229727171730985, 12.145350589735553 ] } },
{ "type": "Feature", "properties": { "name": "Santa Rosa" }, "geometry": { "type": "Point", "coordinates": [ -86.227214673712837, 12.144694918607287 ] } },
{ "type": "Feature", "properties": { "name": "Pulpería El Manguito" }, "geometry": { "type": "Point", "coordinates": [ -86.22058636455742, 12.141951726257894 ] } },
{ "type": "Feature", "properties": { "name": "Maderas Pablo" }, "geometry": { "type": "Point", "coordinates": [ -86.216624524659878, 12.141212879154477 ] } },
{ "type": "Feature", "properties": { "name": "Rafaela Herrera" }, "geometry": { "type": "Point", "coordinates": [ -86.216678693071501, 12.137203677947868 ] } },
{ "type": "Feature", "properties": { "name": "Colegio Miguel Larreynaga" }, "geometry": { "type": "Point", "coordinates": [ -86.21696768109841, 12.134993063029542 ] } },
{ "type": "Feature", "properties": { "name": "Triángulo 9 Junio" }, "geometry": { "type": "Point", "coordinates": [ -86.212029731813132, 12.133017976248567 ] } },
{ "type": "Feature", "properties": { "name": "Farmacia Santa Lucía" }, "geometry": { "type": "Point", "coordinates": [ -86.212854115749366, 12.13119296864863 ] } },
{ "type": "Feature", "properties": { "name": "Américas 3" }, "geometry": { "type": "Point", "coordinates": [ -86.212828064606128, 12.130083466823693 ] } },
{ "type": "Feature", "properties": { "name": "Mercado Iván Montenegro Sureste" }, "geometry": { "type": "Point", "coordinates": [ -86.214177244331353, 12.127880697240355 ] } }
]
}
