{
"type": "FeatureCollection",
                                                                                
"features": [
{ "type": "Feature", "properties": { "name": null }, "geometry": { "type": "MultiLineString", "coordinates": [ [ [ -86.209740644806132, 12.149373455944419 ], [ -86.211360486926466, 12.149516162599067 ], [ -86.211691605940189, 12.149548567976446 ], [ -86.211905494809344, 12.149568678628723 ], [ -86.21297511881815, 12.149669407506098 ], [ -86.214179849445671, 12.149750025708295 ], [ -86.214810915932759, 12.149801751317545 ], [ -86.21493146984389, 12.149810181976155 ], [ -86.215382783442635, 12.149856199316416 ], [ -86.216207975862631, 12.14992970409722 ], [ -86.217090840123859, 12.150006194713754 ], [ -86.217433277910175, 12.15003737056149 ], [ -86.217795837958846, 12.150070390610324 ], [ -86.217975680678734, 12.1500847051515 ], [ -86.21883581756326, 12.150161107904244 ], [ -86.219739702402151, 12.150247346387307 ], [ -86.220078367264264, 12.150278258749179 ], [ -86.220272672860204, 12.150296086047154 ], [ -86.220728208540805, 12.150334989949405 ], [ -86.220899696928541, 12.150349655753075 ], [ -86.221072622620724, 12.150366253577806 ], [ -86.22149006973325, 12.150379162996321 ], [ -86.221629578096881, 12.150390316030865 ], [ -86.221661737784061, 12.150393214063374 ], [ -86.221776093319718, 12.150456531675125 ], [ -86.221863589228377, 12.150476554439654 ], [ -86.22212086672576, 12.15051220900782 ], [ -86.222391708783917, 12.150542506605111 ], [ -86.222607304452112, 12.150566217765805 ], [ -86.222960162695713, 12.150601696683765 ], [ -86.223210792659984, 12.150629359698204 ], [ -86.223263613598704, 12.150636648682489 ], [ -86.223428993442496, 12.150659657282151 ], [ -86.223581886703855, 12.150690569596124 ], [ -86.223682767510269, 12.150754589689505 ], [ -86.223754812396052, 12.150812989349726 ], [ -86.223885068112253, 12.150846360578397 ], [ -86.223981277679158, 12.150857952688426 ], [ -86.224345544526884, 12.150825284013406 ], [ -86.224548384118037, 12.150797357562237 ], [ -86.224707296091793, 12.150797357562237 ], [ -86.224995026477288, 12.150820366148006 ], [ -86.225324348860454, 12.150856986679276 ], [ -86.225672985022229, 12.150865066028409 ], [ -86.225809798439997, 12.150866646770613 ], [ -86.22600859561237, 12.15086778841774 ], [ -86.226010571906002, 12.15086778841774 ], [ -86.22615762611801, 12.150833099906444 ], [ -86.227346636228077, 12.150944015307692 ], [ -86.228739204581515, 12.151071528443442 ], [ -86.230063950131012, 12.151192806376066 ], [ -86.23093351932603, 12.151274565762149 ], [ -86.231057666498302, 12.151285279664799 ], [ -86.232113366620183, 12.151376523457627 ], [ -86.232856722517795, 12.151444495232889 ], [ -86.233136996886444, 12.151472860710209 ], [ -86.234373078717397, 12.151579472724828 ], [ -86.235052564398316, 12.15163804784153 ], [ -86.236131890212164, 12.151740795766237 ], [ -86.23686725110376, 12.151810787278542 ], [ -86.236888720839033, 12.151812894927311 ], [ -86.23771579972113, 12.151892283018727 ], [ -86.237925197013851, 12.151912393493884 ], [ -86.238638279686398, 12.151971056355945 ], [ -86.238761708206425, 12.151984931701666 ], [ -86.23924284587261, 12.152033407587375 ], [ -86.239463921264047, 12.152052112953957 ], [ -86.239659933659013, 12.152068710672493 ], [ -86.23973242770245, 12.152074770156789 ], [ -86.242239895155024, 12.152286764201403 ], [ -86.242846437634853, 12.152340596962148 ], [ -86.243019992147751, 12.152357721573804 ], [ -86.243663365554227, 12.1524211265366 ], [ -86.244483078250994, 12.152494981882786 ], [ -86.245317613149936, 12.152557157354536 ], [ -86.246300190407709, 12.152646029613788 ], [ -86.246441315738849, 12.152658763284878 ], [ -86.248086849676284, 12.152807615463653 ], [ -86.249102035778861, 12.152902195831325 ], [ -86.249449144804657, 12.152934161704724 ], [ -86.249790235118041, 12.152965600664368 ], [ -86.250603569776274, 12.153033484215408 ], [ -86.251268502749582, 12.153093727559261 ], [ -86.251464335481529, 12.153112871942652 ], [ -86.252106181752026, 12.153169426902032 ], [ -86.252995783377898, 12.153247585133563 ], [ -86.253932366893125, 12.153330397706627 ], [ -86.254477284944471, 12.153385196256185 ], [ -86.254853499385447, 12.153418567162261 ], [ -86.255280468640009, 12.153456504608267 ], [ -86.255815505223211, 12.153498920774139 ], [ -86.257180585128964, 12.153607288339071 ], [ -86.258523027489545, 12.153715831496001 ], [ -86.258533447946846, 12.153647596846698 ], [ -86.258541173458298, 12.153513322949012 ], [ -86.258683736093886, 12.15273999531016 ], [ -86.258728112868909, 12.152499372806417 ], [ -86.259552137479048, 12.152533007278965 ], [ -86.260427545723402, 12.152566553928814 ], [ -86.260607118948698, 12.151986161162647 ], [ -86.260495907516543, 12.151981945867846 ] ], [ [ -86.188471862644747, 12.162690511220511 ], [ -86.188423084124807, 12.162390622461997 ], [ -86.188309806567489, 12.161902018208163 ], [ -86.188293816555429, 12.161832907505236 ], [ -86.188272077325564, 12.161739559729293 ], [ -86.188045522210899, 12.160762874825094 ], [ -86.188013901512889, 12.16040686956301 ], [ -86.187980394352806, 12.159912202357985 ], [ -86.187972938335932, 12.15983325574037 ], [ -86.18795110927455, 12.159554615266394 ], [ -86.187945899045886, 12.159481025328846 ], [ -86.187931705664397, 12.159209058521363 ], [ -86.187926225941169, 12.15915786163886 ], [ -86.187911044412857, 12.158840054355272 ], [ -86.187908169803961, 12.158791052811607 ], [ -86.187945180393655, 12.158552455560447 ], [ -86.187996114870273, 12.158234471920204 ], [ -86.188048845977463, 12.157900417446211 ], [ -86.188071214028014, 12.157758505639414 ], [ -86.188105619503403, 12.157540895679681 ], [ -86.188209464750244, 12.157154062361734 ], [ -86.188302799708268, 12.156807009607643 ], [ -86.188371610659033, 12.156550759333122 ], [ -86.188749262404471, 12.155501957230083 ], [ -86.188773067759513, 12.155359165968305 ], [ -86.188790764570612, 12.155252994556088 ], [ -86.188835500671743, 12.154984272678247 ], [ -86.188846639781275, 12.154917794707753 ], [ -86.188869546821024, 12.154780360013323 ], [ -86.188877092669415, 12.154684814318093 ], [ -86.18889990987762, 12.154398616115737 ], [ -86.188915899889679, 12.154198479172106 ], [ -86.188972493752573, 12.153488206960635 ], [ -86.189076877988597, 12.152648927621744 ], [ -86.189088286592693, 12.152517814684844 ], [ -86.189142544835875, 12.15193619235116 ], [ -86.189170123115076, 12.151640682404206 ], [ -86.189180004583221, 12.151512203534413 ], [ -86.189239023897372, 12.150743963584542 ], [ -86.189264536051439, 12.150495874649604 ], [ -86.189330113067186, 12.149771102358436 ], [ -86.189431263368178, 12.148619085341691 ], [ -86.189464950191336, 12.148504480540334 ], [ -86.189526664451364, 12.148294152060034 ], [ -86.189587929553724, 12.148122112899767 ], [ -86.189633294475584, 12.147994598350859 ], [ -86.189686295077351, 12.147726132602971 ], [ -86.189714771671845, 12.147469610122471 ], [ -86.190035021070642, 12.147496131800867 ], [ -86.19050771457313, 12.14753521175261 ], [ -86.190851050674738, 12.147574379518728 ], [ -86.192271287138936, 12.147724903122322 ], [ -86.192739039907366, 12.147781898326894 ], [ -86.193193407778082, 12.14782615961756 ], [ -86.193472604168377, 12.147853383820475 ], [ -86.194067648212581, 12.147911432837379 ], [ -86.194423830222718, 12.147952356947572 ], [ -86.195209945927871, 12.148036576287618 ], [ -86.196018070357454, 12.148110520670569 ], [ -86.197418274390827, 12.148232590331446 ], [ -86.197595781490961, 12.148248046629833 ], [ -86.198570992563404, 12.148344385014909 ], [ -86.199626602853769, 12.148447046391443 ], [ -86.199876514165794, 12.148469791721009 ], [ -86.201004349005018, 12.14857201395033 ], [ -86.20150462078675, 12.148617416766397 ], [ -86.202235400270368, 12.148671425908885 ], [ -86.202534898586094, 12.148702250634072 ], [ -86.203107933905841, 12.148761353302305 ], [ -86.203937707733772, 12.148839073730153 ], [ -86.205352015317104, 12.148971417954499 ], [ -86.206167865258152, 12.149040707638267 ], [ -86.207392987642621, 12.149142314911273 ], [ -86.207698863996868, 12.149177091462521 ], [ -86.207816094141435, 12.149191054773492 ], [ -86.20793943282996, 12.149200188007942 ], [ -86.208252944864114, 12.149226446055238 ], [ -86.208588285959678, 12.149254723949419 ], [ -86.208825081868568, 12.14927316605271 ], [ -86.209304422904154, 12.149331917316099 ], [ -86.209665994806016, 12.149365200910973 ] ] ] } },
{ "type": "Feature", "properties": { "name": "Cancha Benito Escobar" }, "geometry": { "type": "Point", "coordinates": [ -86.188314477806955, 12.161827199504826 ] } },
{ "type": "Feature", "properties": { "name": "Colegio Las Américas" }, "geometry": { "type": "Point", "coordinates": [ -86.188033484786089, 12.159913431782327 ] } },
{ "type": "Feature", "properties": { "name": "El Molino" }, "geometry": { "type": "Point", "coordinates": [ -86.188265339960935, 12.15716512729532 ] } },
{ "type": "Feature", "properties": { "name": "Transagro" }, "geometry": { "type": "Point", "coordinates": [ -86.18890979134575, 12.15492367849181 ] } },
{ "type": "Feature", "properties": { "name": "Palí" }, "geometry": { "type": "Point", "coordinates": [ -86.189217733825146, 12.151519492494513 ] } },
{ "type": "Feature", "properties": { "name": "Entrada a Las Mercedes" }, "geometry": { "type": "Point", "coordinates": [ -86.190031607472548, 12.14762048506563 ] } },
{ "type": "Feature", "properties": { "name": "Subasta" }, "geometry": { "type": "Point", "coordinates": [ -86.193191521315967, 12.147909500797681 ] } },
{ "type": "Feature", "properties": { "name": "Veterinaria Antares" }, "geometry": { "type": "Point", "coordinates": [ -86.197413692982863, 12.148280803441063 ] } },
{ "type": "Feature", "properties": { "name": "La Rocargo" }, "geometry": { "type": "Point", "coordinates": [ -86.199881993889051, 12.148561212118677 ] } },
{ "type": "Feature", "properties": { "name": "Autolavado El Gato" }, "geometry": { "type": "Point", "coordinates": [ -86.202528251052996, 12.148794724788234 ] } },
{ "type": "Feature", "properties": { "name": "Gasolinera UNO" }, "geometry": { "type": "Point", "coordinates": [ -86.208234080243145, 12.149303288152007 ] } },
{ "type": "Feature", "properties": { "name": "Ecasa" }, "geometry": { "type": "Point", "coordinates": [ -86.211895164183574, 12.149634982296844 ] } },
{ "type": "Feature", "properties": { "name": "Siemens" }, "geometry": { "type": "Point", "coordinates": [ -86.217424384588853, 12.150111314388557 ] } },
{ "type": "Feature", "properties": { "name": "La Danto" }, "geometry": { "type": "Point", "coordinates": [ -86.220067946806978, 12.150356856925834 ] } },
{ "type": "Feature", "properties": { "name": "Sucursal Norte - DISSUR" }, "geometry": { "type": "Point", "coordinates": [ -86.223262086462725, 12.15068038258396 ] } },
{ "type": "Feature", "properties": { "name": "Nabisco" }, "geometry": { "type": "Point", "coordinates": [ -86.226015871966169, 12.150879292707831 ] } },
{ "type": "Feature", "properties": { "name": "Grupo Q" }, "geometry": { "type": "Point", "coordinates": [ -86.231053534247991, 12.151340693367537 ] } },
{ "type": "Feature", "properties": { "name": "Bar El Trebol" }, "geometry": { "type": "Point", "coordinates": [ -86.236133507179687, 12.151827560649521 ] } },
{ "type": "Feature", "properties": { "name": "SINSA" }, "geometry": { "type": "Point", "coordinates": [ -86.243002474999699, 12.152417262522675 ] } },
{ "type": "Feature", "properties": { "name": "Super de los Militares" }, "geometry": { "type": "Point", "coordinates": [ -86.246267940889012, 12.152731389107576 ] } },
{ "type": "Feature", "properties": { "name": "Provinco" }, "geometry": { "type": "Point", "coordinates": [ -86.249442766766151, 12.153025931841885 ] } },
{ "type": "Feature", "properties": { "name": "Ceibo" }, "geometry": { "type": "Point", "coordinates": [ -86.254457162682101, 12.153488294778779 ] } },
{ "type": "Feature", "properties": { "name": "Planta Eléctrica" }, "geometry": { "type": "Point", "coordinates": [ -86.257178608835332, 12.153649792299003 ] } },
{ "type": "Feature", "properties": { "name": "Llantera Vargas" }, "geometry": { "type": "Point", "coordinates": [ -86.258750031761849, 12.152752904613527 ] } },
{ "type": "Feature", "properties": { "name": "Terminal 170" }, "geometry": { "type": "Point", "coordinates": [ -86.26050354319645, 12.15194488639812 ] } }
]
}
