{
"type": "FeatureCollection",
                                                                                
"features": [
{ "type": "Feature", "properties": { "name": null }, "geometry": { "type": "LineString", "coordinates": [ [ -86.266349240076323, 12.134582660013336 ], [ -86.265192299821905, 12.134584416500942 ], [ -86.265156726536659, 12.133950323720155 ], [ -86.264337642660607, 12.131601883853541 ], [ -86.264191576595408, 12.130636769189675 ], [ -86.264191576595408, 12.130376717220699 ], [ -86.264234605897514, 12.130183676115134 ], [ -86.264288864140681, 12.130042803445781 ], [ -86.264543626355248, 12.129705376213094 ], [ -86.265599326477144, 12.129394911164432 ], [ -86.2658053101718, 12.129378048554543 ], [ -86.266267942543124, 12.129554315470799 ], [ -86.266446347958549, 12.129537277218912 ], [ -86.266572022266786, 12.129477818980847 ], [ -86.266683413362017, 12.129370056379694 ], [ -86.266767046514971, 12.129124670147407 ], [ -86.267047500546681, 12.128952179475277 ], [ -86.267503395553376, 12.128749388618719 ], [ -86.268511844291325, 12.12840800756033 ], [ -86.269469268721139, 12.127992851771138 ], [ -86.272519677931427, 12.126113971719475 ], [ -86.273524982565874, 12.125459658492135 ], [ -86.274728006394355, 12.124752822748221 ], [ -86.27507152215901, 12.124573654344548 ], [ -86.275501186359406, 12.124409855674104 ], [ -86.276100991474635, 12.124266257293129 ], [ -86.276706905133764, 12.124273546998738 ], [ -86.277284701524508, 12.124336870818574 ], [ -86.27883016313929, 12.124741229502213 ], [ -86.28175974894387, 12.12523517159755 ], [ -86.281863145033086, 12.125286989794223 ], [ -86.282565088596101, 12.125432168518726 ], [ -86.282771611279898, 12.125506821794568 ], [ -86.282860274998455, 12.125626179165113 ], [ -86.283170463266046, 12.125706014197705 ], [ -86.28342612379592, 12.125723316176325 ], [ -86.283600666455612, 12.125649453407005 ], [ -86.283940049969956, 12.125640055883155 ], [ -86.28635975201928, 12.125862785891851 ], [ -86.288749989327258, 12.125999796372614 ], [ -86.291831210751781, 12.126032468092252 ], [ -86.293806516230035, 12.125970725564954 ], [ -86.297165676403466, 12.125669829345417 ], [ -86.300936444640087, 12.125123455044388 ], [ -86.302527091513667, 12.12479190603597 ], [ -86.304085129542457, 12.12442136110678 ], [ -86.305886072024052, 12.123924255700137 ], [ -86.308547241221717, 12.123080316148751 ], [ -86.30957176980327, 12.122843267812314 ], [ -86.310229067096657, 12.122787760353706 ], [ -86.310603035749438, 12.122788023838503 ], [ -86.311778121972594, 12.12296148460814 ], [ -86.312690630638201, 12.123261593430248 ], [ -86.312939194477309, 12.123598414021009 ], [ -86.312984379736108, 12.123752200803809 ], [ -86.312442695619794, 12.125173516713149 ], [ -86.311009882741615, 12.129399126816741 ], [ -86.311025243932974, 12.12949362767173 ], [ -86.311122621309778, 12.129615618038173 ], [ -86.312217577809577, 12.13076877115588 ], [ -86.312779024862152, 12.131547607773536 ], [ -86.313044027870973, 12.131884681373158 ], [ -86.313233572395944, 12.132072803035232 ], [ -86.313675274021136, 12.132349979247785 ], [ -86.31396174676523, 12.132450363337307 ], [ -86.314293674262728, 12.132499106254283 ], [ -86.314659917404057, 12.132496295852098 ], [ -86.315050415058067, 12.132423927985817 ], [ -86.316056438344731, 12.132146664024981 ], [ -86.31662354478361, 12.132025377418652 ], [ -86.317085189008125, 12.131955819832411 ], [ -86.317297550741273, 12.13196135282289 ], [ -86.317505600561077, 12.131993409035312 ], [ -86.318766745388459, 12.132407153392641 ], [ -86.319139995389023, 12.13247398828376 ], [ -86.320491780228551, 12.132571210625029 ], [ -86.320820294127955, 12.132663778205147 ], [ -86.321525651289036, 12.132949472820396 ], [ -86.324874031679073, 12.134369510155494 ], [ -86.325532317119283, 12.134657925497191 ], [ -86.325877180356841, 12.134847362566086 ], [ -86.327273611466012, 12.136080324973102 ], [ -86.328641565980661, 12.137368873932214 ], [ -86.329150281926076, 12.137771456380538 ], [ -86.329955441915217, 12.138295322028156 ], [ -86.333091730066684, 12.140099291391191 ], [ -86.33343803060869, 12.140332021079887 ], [ -86.333677431631912, 12.140552104138029 ], [ -86.333955190717759, 12.140879505892817 ], [ -86.334242112619521, 12.141465982600804 ], [ -86.337843997582723, 12.155537962394684 ], [ -86.339280134227437, 12.160993478867267 ], [ -86.339556815334944, 12.161886387072355 ], [ -86.339974531942062, 12.163038873520524 ], [ -86.340373114433618, 12.164011598402981 ], [ -86.342213043798566, 12.167914668394078 ], [ -86.342716010526132, 12.168916880617294 ], [ -86.34525024777416, 12.167301466849533 ], [ -86.347371709149144, 12.166233827159385 ], [ -86.347633029065292, 12.166750348229396 ], [ -86.348455436707908, 12.166319182291538 ], [ -86.349270837491304, 12.165945094780749 ], [ -86.349490565409809, 12.166452659397976 ], [ -86.350490929310197, 12.168360496553589 ], [ -86.354250109279661, 12.166480847646747 ], [ -86.355305809401543, 12.165977498156389 ], [ -86.355932384312212, 12.165742595547021 ], [ -86.357805371679618, 12.165536407964051 ], [ -86.358397091957244, 12.167684948491031 ], [ -86.360477051166114, 12.166633116826736 ], [ -86.361837998821557, 12.166079098958988 ], [ -86.362066889555948, 12.166591756521775 ], [ -86.363126093107454, 12.166163224745411 ], [ -86.362942028305739, 12.165725383983187 ], [ -86.362950562300938, 12.165387650724361 ], [ -86.365171826503982, 12.165421283566824 ], [ -86.364890294493932, 12.16402670252584 ], [ -86.364764799848743, 12.161975958737019 ], [ -86.362626180651844, 12.160032246836176 ], [ -86.360915698519349, 12.160183378102895 ], [ -86.360763344247161, 12.157721446974433 ], [ -86.360011095028241, 12.157548360108208 ], [ -86.359010641296308, 12.157255929986981 ], [ -86.358436617829753, 12.157030416088325 ], [ -86.356802133170305, 12.156493853823983 ], [ -86.352505401334838, 12.154926313021942 ] ] } },
{ "type": "Feature", "properties": { "name": "Chilamate" }, "geometry": { "type": "Point", "coordinates": [ -86.336311741202593, 12.149792179006909 ] } },
{ "type": "Feature", "properties": { "name": "Palí" }, "geometry": { "type": "Point", "coordinates": [ -86.355958165960871, 12.165812232117922 ] } },
{ "type": "Feature", "properties": { "name": "Catedral Noreste" }, "geometry": { "type": "Point", "coordinates": [ -86.266346904456597, 12.134555697927018 ] } },
{ "type": "Feature", "properties": { "name": "Catedral Este" }, "geometry": { "type": "Point", "coordinates": [ -86.265162296091418, 12.133825349300187 ] } },
{ "type": "Feature", "properties": { "name": "Metrocentro Norte" }, "geometry": { "type": "Point", "coordinates": [ -86.265120883756836, 12.129621678033317 ] } },
{ "type": "Feature", "properties": { "name": "UCA" }, "geometry": { "type": "Point", "coordinates": [ -86.271601779374095, 12.126810264622815 ] } },
{ "type": "Feature", "properties": { "name": "ENEL Central" }, "geometry": { "type": "Point", "coordinates": [ -86.276817038587581, 12.124383156042146 ] } },
{ "type": "Feature", "properties": { "name": "Gasolinera Puma" }, "geometry": { "type": "Point", "coordinates": [ -86.284556473917931, 12.125727531886687 ] } },
{ "type": "Feature", "properties": { "name": "Julio Martínez" }, "geometry": { "type": "Point", "coordinates": [ -86.288232110565957, 12.126064876326316 ] } },
{ "type": "Feature", "properties": { "name": "El Zumen" }, "geometry": { "type": "Point", "coordinates": [ -86.296396269362631, 12.125815007861492 ] } },
{ "type": "Feature", "properties": { "name": "Mercado Israel Lewites Sur" }, "geometry": { "type": "Point", "coordinates": [ -86.299825408296684, 12.125399584552959 ] } },
{ "type": "Feature", "properties": { "name": "Centro Comercial Nejapa" }, "geometry": { "type": "Point", "coordinates": [ -86.304041291756576, 12.124486968411917 ] } },
{ "type": "Feature", "properties": { "name": "7 Sur" }, "geometry": { "type": "Point", "coordinates": [ -86.311112739841647, 12.122921083628837 ] } },
{ "type": "Feature", "properties": { "name": "Velez Páiz" }, "geometry": { "type": "Point", "coordinates": [ -86.3116016928508, 12.127502515679161 ] } },
{ "type": "Feature", "properties": { "name": "Las Piedrecitas" }, "geometry": { "type": "Point", "coordinates": [ -86.311778121972594, 12.130380054599817 ] } },
{ "type": "Feature", "properties": { "name": "KM 9" }, "geometry": { "type": "Point", "coordinates": [ -86.332046270739013, 12.139561465476051 ] } },
{ "type": "Feature", "properties": { "name": "Satelite de Asososca" }, "geometry": { "type": "Point", "coordinates": [ -86.3349547461344, 12.144563801752085 ] } },
{ "type": "Feature", "properties": { "name": "La Cuesta del Plomo" }, "geometry": { "type": "Point", "coordinates": [ -86.338015306307398, 12.156540748179602 ] } },
{ "type": "Feature", "properties": { "name": "Entrada Ciudad Sandino" }, "geometry": { "type": "Point", "coordinates": [ -86.342563925748536, 12.168746171994369 ] } },
{ "type": "Feature", "properties": { "name": "Entrada a Ciudad Sandino" }, "geometry": { "type": "Point", "coordinates": [ -86.343613607158019, 12.16843689405558 ] } },
{ "type": "Feature", "properties": { "name": "Bomberos" }, "geometry": { "type": "Point", "coordinates": [ -86.347412223168476, 12.166408049951439 ] } },
{ "type": "Feature", "properties": { "name": "Plaza Padre Miguel" }, "geometry": { "type": "Point", "coordinates": [ -86.349203733339593, 12.166032030657687 ] } },
{ "type": "Feature", "properties": { "name": "Pinar del Río" }, "geometry": { "type": "Point", "coordinates": [ -86.35020104296801, 12.167915722154641 ] } },
{ "type": "Feature", "properties": { "name": "El Gallo Más Gallo" }, "geometry": { "type": "Point", "coordinates": [ -86.35187837726653, 12.167729557723211 ] } },
{ "type": "Feature", "properties": { "name": "Farmacia Nefi" }, "geometry": { "type": "Point", "coordinates": [ -86.353363202599638, 12.167000880783974 ] } },
{ "type": "Feature", "properties": { "name": "Iglesia San Francisco" }, "geometry": { "type": "Point", "coordinates": [ -86.35469657197585, 12.166354220038475 ] } },
{ "type": "Feature", "properties": { "name": "Alcaldía" }, "geometry": { "type": "Point", "coordinates": [ -86.357500213977588, 12.165637218608079 ] } },
{ "type": "Feature", "properties": { "name": "Vuelta de la Uno" }, "geometry": { "type": "Point", "coordinates": [ -86.358702519153852, 12.167577991679412 ] } },
{ "type": "Feature", "properties": { "name": "Iglesia San José" }, "geometry": { "type": "Point", "coordinates": [ -86.361715019459169, 12.166194223071264 ] } },
{ "type": "Feature", "properties": { "name": "Casa del Zinc" }, "geometry": { "type": "Point", "coordinates": [ -86.364383015852994, 12.165503302021222 ] } },
{ "type": "Feature", "properties": { "name": "Centro Comercial Francisco" }, "geometry": { "type": "Point", "coordinates": [ -86.36493368312216, 12.16374297319086 ] } },
{ "type": "Feature", "properties": { "name": "Entrada a Nueva Vida" }, "geometry": { "type": "Point", "coordinates": [ -86.364828490402388, 12.162008099150517 ] } },
{ "type": "Feature", "properties": { "name": "Pulpería Romero" }, "geometry": { "type": "Point", "coordinates": [ -86.362941938474222, 12.160290425705854 ] } },
{ "type": "Feature", "properties": { "name": "Santa Eduviges" }, "geometry": { "type": "Point", "coordinates": [ -86.360356407423467, 12.157592883224591 ] } },
{ "type": "Feature", "properties": { "name": "Villa Nueva" }, "geometry": { "type": "Point", "coordinates": [ -86.352518696401035, 12.154889429597713 ] } },
{ "type": "Feature", "properties": { "name": "San Benito" }, "geometry": { "type": "Point", "coordinates": [ -86.345927846992993, 12.167045402317331 ] } }
]
}
